{"JUNQUEIRO": {"name": "JUNQUEIRO", "coordinates": [-9.9201549, -36.474737]}, "IBATEGUARA": {"name": "IBATEGUARA", "coordinates": [-8.9737196, -35.9279963]}, "S\u00c3O MIGUEL DOS CAMPOS": {"name": "S\u00c3O MIGUEL DOS CAMPOS", "coordinates": [-9.7831115, -36.0967804]}, "BOCA DA MATA": {"name": "BOCA DA MATA", "coordinates": [-9.663, -36.1634]}, "MACEI\u00d3": {"name": "MACEI\u00d3", "coordinates": [-9.6476843, -35.7339264]}, "PO\u00c7O DAS TRINCHEIRAS": {"name": "PO\u00c7O DAS TRINCHEIRAS", "coordinates": [-9.285, -37.2958269230769]}, "COQUEIRO SECO": {"name": "COQUEIRO SECO", "coordinates": [-9.6375, -35.7974266304348]}, "JACAR\u00c9 DOS HOMENS": {"name": "JACAR\u00c9 DOS HOMENS", "coordinates": [-9.664, -37.2363]}, "JARAMATAIA": {"name": "JARAMATAIA", "coordinates": [-9.6597307, -37.0015482]}, "TAQUARANA": {"name": "TAQUARANA", "coordinates": [-9.64529, -36.492844]}, "SANTANA DO IPANEMA": {"name": "SANTANA DO IPANEMA", "coordinates": [-9.369989, -37.248018]}, "P\u00c3O DE A\u00c7\u00daCAR": {"name": "P\u00c3O DE A\u00c7\u00daCAR", "coordinates": [-9.7496551, -37.4329891]}, "CH\u00c3 PRETA": {"name": "CH\u00c3 PRETA", "coordinates": [-9.25558585, -36.2748150786184]}, "JAPARATINGA": {"name": "JAPARATINGA", "coordinates": [-9.087464, -35.263403]}, "TRAIPU": {"name": "TRAIPU", "coordinates": [-9.967583, -37.0015357]}, "BARRA DE SANTO ANT\u00d4NIO": {"name": "BARRA DE SANTO ANT\u00d4NIO", "coordinates": [-9.38260935, -35.5864800633929]}, "MATA GRANDE": {"name": "MATA GRANDE", "coordinates": [-9.03426825, -37.7206770665553]}, "S\u00c3O JOS\u00c9 DA LAJE": {"name": "S\u00c3O JOS\u00c9 DA LAJE", "coordinates": [-8.992, -36.03325]}, "CANAPI": {"name": "CANAPI", "coordinates": [-9.1173572, -37.6011704]}, "CORURIPE": {"name": "CORURIPE", "coordinates": [-10.1249963, -36.1760623]}, "SANTANA DO MUNDA\u00da": {"name": "SANTANA DO MUNDA\u00da", "coordinates": [-9.14679555, -36.1936500297329]}, "OLHO D'\u00c1GUA DO CASADO": {"name": "OLHO D'\u00c1GUA DO CASADO", "coordinates": [-9.43354325, -37.8233286108295]}, "JACU\u00cdPE": {"name": "JACU\u00cdPE", "coordinates": [-8.83951, -35.459074]}, "JOAQUIM GOMES": {"name": "JOAQUIM GOMES", "coordinates": [-9.0755, -35.7864977129788]}, "PORTO CALVO": {"name": "PORTO CALVO", "coordinates": [-9.051948, -35.398653]}, "S\u00c3O LU\u00cdS DO QUITUNDE": {"name": "S\u00c3O LU\u00cdS DO QUITUNDE", "coordinates": [-9.243, -35.6422419354839]}, "LIMOEIRO DE ANADIA": {"name": "LIMOEIRO DE ANADIA", "coordinates": [-9.742, -36.4596666666667]}, "MAJOR ISIDORO": {"name": "MAJOR ISIDORO", "coordinates": [-9.5326559, -36.9862043]}, "TEOT\u00d4NIO VILELA": {"name": "TEOT\u00d4NIO VILELA", "coordinates": [-9.948, -36.3616875]}, "MINADOR DO NEGR\u00c3O": {"name": "MINADOR DO NEGR\u00c3O", "coordinates": [-9.33400255, -36.8593790222182]}}